city_id,city_name,city_lat,city_long
1,Toulouse,43.6047,1.4442
2,Barcelone,41.3851,2.1734
3,Paris,48.8566,2.3522
4,Madrid,40.4168,-3.7038
5,Lisbon,38.7223,-9.1393
6,Milan,45.4642,9.19
7,Dublin,53.3498,-6.2603
8,Lyon,45.764,4.8357
9,Zurich,47.3769,8.5417
